City ID,City,Cloudiness,Country,Date,Humidity,Lat,Lng,Max_Temp,Wind_Speed
0,Kapaa,89,US,1579990269,59,22.08,-159.32,75.99,7.96
1,Bluff,66,NZ,1579990266,56,-46.6,168.33,63.43,1.54
2,Bredasdorp,0,ZA,1579990062,72,-34.53,20.04,66.2,16.11
3,Kahului,6,US,1579990288,70,20.89,-156.47,79,14
4,Hermanus,29,ZA,1579990267,77,-34.42,19.23,64.99,8.99
4,Esperance,74,AU,1579990269,85,-33.87,121.9,65.34,4.59
5,Yellowknife,100,CA,1579990060,84,62.46,-114.35,10,7.63
6,Honghu,100,CN,1579990573,91,29.82,113.46,38.62,14.79
7,Rikitea,36,PF,1579990266,77,-23.12,-134.97,78.76,14.61
8,Labuhan,100,ID,1579990341,92,-6.88,112.21,75.49,2.8
9,Mar del Plata,0,AR,1579990272,76,-38,-57.56,75,11.99
10,Yumen,0,CN,1579990335,69,40.28,97.2,13.5,4.59
11,Saint-Philippe,100,RE,1579990070,79,-21.36,55.77,72,17.07
12,Port Elizabeth,75,ZA,1579990285,94,-33.92,25.57,68,14.99
13,Saalfeld,88,DE,1579990585,92,50.65,11.37,33.01,4.56
14,Butaritari,3,KI,1579990290,72,3.07,172.79,84.85,9.51
15,Olga,0,RU,1579990588,49,43.74,135.29,20.25,11.9
16,Narsaq,100,GL,1579990306,72,60.92,-46.05,15.8,3.36
17,Saskylakh,100,RU,1579990305,91,71.92,114.08,-16.85,19.26
18,Jamestown,100,US,1579990169,10,42.1,-79.24,37,1.99
19,Sitka,100,US,1579990284,97,57.05,-135.33,33.67,6.02
19,Sargatskoye,100,RU,1579990596,92,55.61,73.5,8.26,12.97
20,Geraldton,0,AU,1579990096,80,-28.77,114.6,72.46,19.3
21,Port Alfred,0,ZA,1579990272,98,-33.59,26.89,68,4
22,Kaitangata,91,NZ,1579990317,77,-46.28,169.85,58.53,6.85
23,Busselton,1,AU,1579990271,61,-33.65,115.33,66,9.6
24,Touros,88,BR,1579990604,82,-5.2,-35.46,82.62,18.68
25,Ushuaia,100,AR,1579990066,57,-54.8,-68.3,47.46,14.94
26,San Juan,0,AR,1579990608,17,-31.54,-68.54,100.31,12.08
27,Carnarvon,0,AU,1579990279,64,-24.87,113.63,78.64,19.28
28,Plettenberg Bay,0,ZA,1579990611,91,-34.05,23.37,68.97,8.93
29,Cabo San Lucas,31,MX,1579990135,77,22.89,-109.91,73.99,5.01
30,Kodinsk,100,RU,1579990614,75,58.69,99.18,26.31,15.19
31,Kinsale,100,IE,1579990616,96,51.71,-8.53,48,13
32,Rexburg,90,US,1579990531,97,43.83,-111.79,36,5.82
33,New Norfolk,77,AU,1579990273,66,-42.78,147.06,70,1.99
34,Avarua,98,CK,1579990274,85,-21.21,-159.78,80.29,14.81
35,Punta Arenas,0,CL,1579990270,62,-53.15,-70.92,51.01,23
36,Faanui,0,PF,1579990273,77,-16.48,-151.75,82.13,12.93
37,Qaanaaq,0,GL,1579990275,46,77.48,-69.36,-13.38,4.99
38,Kerouane,6,GN,1579990627,13,9.27,-9.02,75.6,4.18
39,Porto Velho,100,BR,1579990629,64,-8.76,-63.9,88.77,1.1
40,Ancud,100,CL,1579990309,94,-41.87,-73.82,60.33,8.79
41,Sao Filipe,38,CV,1579990296,52,14.9,-24.5,75.87,16.08
42,Bull Savanna,41,JM,1579990634,68,17.89,-77.59,75.25,4.92
43,Ucluelet,96,CA,1579990256,91,48.93,-125.55,48,2.68
44,Tiznit,28,MA,1579990297,90,29.58,-9.5,48.69,7.25
45,Pisco,100,PE,1579990088,87,-13.7,-76.22,75,11.01
46,George Town,79,MY,1579990292,83,5.41,100.34,78.01,3
47,Hobart,76,AU,1579990142,37,-42.88,147.33,70,1.48
48,Nikolskoye,0,RU,1579990060,81,59.7,30.79,30,7.83
49,Ambon,63,ID,1579990645,74,-3.7,128.18,81.23,3.6
49,Kaffrine,65,SN,1579990647,11,14.11,-15.55,86.07,8.55
50,Tottori,100,JP,1579990649,76,35.5,134.23,41.4,2.57
51,Pangody,83,RU,1579990622,97,65.85,74.49,-2.06,3.71
52,Paamiut,86,GL,1579990274,62,61.99,-49.67,17.4,17.36
52,Ambovombe,0,MG,1579990654,82,-25.17,46.08,68.16,8.86
53,Progreso,0,MX,1579990640,62,21.28,-89.67,81,17.56
54,Bubaque,99,GW,1579990657,66,11.28,-15.83,79.34,15.88
55,Vanavara,100,RU,1579990659,88,60.34,102.28,26.64,13.78
56,Thompson,100,CA,1579990095,91,55.74,-97.86,21.2,1.25
57,Clyde River,56,CA,1579990275,76,70.47,-68.59,-20.76,4.47
58,Bandarbeyla,100,SO,1579990664,82,9.49,50.81,79.02,18.88
58,Arraial do Cabo,0,BR,1579990278,85,-22.97,-42.03,75.97,11.48
59,Barrow,1,US,1579990269,74,71.29,-156.79,-23.8,9.17
60,Leningradskiy,96,RU,1579990328,95,69.38,178.42,-12.96,4.41
61,Joao Pinheiro,99,BR,1579990670,92,-17.74,-46.17,73.24,4.68
62,Mehamn,100,NO,1579990615,64,71.04,27.85,20.37,25.68
63,Esim,94,GH,1579990673,77,4.87,-2.24,78.67,4.29
64,Mataura,99,NZ,1579990063,72,-46.19,168.86,61.81,1.86
65,Raudeberg,100,NO,1579990677,90,61.99,5.14,46,40.56
66,Pevek,100,RU,1579990320,96,69.7,170.31,-16.02,3.6
67,Mahebourg,75,MU,1579990271,83,-20.41,57.7,77,12.75
68,Dikson,100,RU,1579990270,97,73.51,80.55,-8.45,8.05
69,Chokurdakh,82,RU,1579990275,86,70.63,147.92,-31.25,3.15
70,Hithadhoo,100,MV,1579990296,80,-0.6,73.08,82.6,15.23
71,Saint George,1,US,1579990089,41,37.1,-113.58,61,3.36
72,Sarangani,47,PH,1579990688,80,5.4,125.46,81.59,10.51
73,Puerto Ayora,96,EC,1579990271,48,-0.74,-90.35,77,3
74,Ponta do Sol,32,PT,1579990310,77,32.67,-17.1,57.99,4
75,Alofi,100,NU,1579990327,82,-19.06,-169.92,80.69,7.4
76,Khatanga,70,RU,1579990068,90,71.97,102.5,-23.35,3.02
77,Burnie,97,AU,1579990343,99,-41.07,145.92,62.01,8.99
77,Kodiak,80,US,1579990267,81,57.79,-152.41,19.51,23.67
78,Olinda,86,BR,1579990309,77,-8.01,-34.86,81.82,6.35
79,Sagua de Tanamo,31,CU,1579990701,68,20.58,-75.24,71.24,7.05
80,Tukrah,11,LY,1579990703,65,32.53,20.58,53.46,9.4
81,Kavieng,92,PG,1579990275,72,-2.57,150.8,83.55,8.93
82,Bilma,0,NE,1579990706,15,18.69,12.92,62.58,8.84
83,Bambous Virieux,75,MU,1579990067,83,-20.34,57.76,77,12.75
84,Chapais,100,CA,1579990709,95,49.78,-74.85,27.36,6.6
85,Muros,14,ES,1579990313,92,42.78,-9.06,51.01,1.99
86,Mayo,75,US,1579990713,75,38.89,-76.51,48.99,5.82
87,Chui,45,UY,1579990292,69,-33.7,-53.46,76.3,7.72
88,Sonqor,0,IR,1579990716,89,34.78,47.6,16.99,2.84
89,Daru,93,PG,1579990330,94,-9.08,143.21,75.72,2.44
90,Fare,0,PF,1579990719,76,-16.7,-151.02,82.06,11.74
91,Luderitz,0,NA,1579990287,91,-26.65,15.16,66.15,15.19
91,Faya,0,SA,1579990723,79,18.39,42.45,49.1,1.25
92,Tabas,0,IR,1579990724,55,33.6,56.92,42.84,3.98
92,Manzhouli,100,CN,1579990726,81,49.6,117.43,-3.84,3.78
93,Comodoro Rivadavia,0,AR,1579990501,60,-45.87,-67.5,66.25,4.32
94,Souillac,75,MU,1579990077,83,-20.52,57.52,77,12.75
95,Srednekolymsk,100,RU,1579990330,97,67.45,153.68,-27.18,5.3
96,Bodden Town,26,KY,1579990733,66,19.28,-81.25,80.01,8.01
97,Maturin,100,VE,1579990653,60,9.75,-63.18,85.19,6.2
98,Loandjili,40,CG,1579990736,83,-4.76,11.86,84.2,4.7
99,Batesville,61,US,1579990738,56,35.77,-91.64,53.01,1.99
100,Lufilufi,71,WS,1579990739,83,-13.87,-171.6,82,3
101,Mandiana,14,GN,1579990741,12,10.63,-8.68,76.66,3.51
102,Atuona,61,PF,1579990277,77,-9.8,-139.03,80.87,15.77
103,Hanting,100,CN,1579990744,73,36.77,119.21,31.46,5.77
104,Ostrovnoy,43,RU,1579990324,99,68.05,39.51,2.89,5.53
104,Sabha,99,LY,1579990748,20,27.04,14.43,60.21,8.86
105,Kasane,24,BW,1579990749,74,-17.82,25.15,70.74,5.97
106,Tiksi,0,RU,1579990334,70,71.69,128.87,-26.79,6.35
107,Tengushevo,100,RU,1579990745,83,54.77,42.72,27,12.86
108,Salalah,56,OM,1579990272,83,17.02,54.09,73,5.84
109,Hong Kong,100,HK,1579990260,93,22.29,114.16,62.01,1.01
109,South River,100,US,1579990757,96,40.45,-74.39,53.01,3
110,Hilo,52,US,1579990270,87,19.73,-155.09,78.01,1.01
111,Yelizovo,99,RU,1579990332,90,53.19,158.38,17.55,13.58
112,Norman Wells,100,CA,1579990308,92,65.28,-126.83,-18.09,9.44
113,Tual,89,ID,1579990619,68,-5.67,132.75,83.75,4.25
113,Tasiilaq,100,GL,1579990278,73,65.61,-37.64,26.6,12.75
114,Ratnagiri,34,IN,1579990768,58,16.98,73.3,68.52,1.74
115,Saint-Paul,100,RE,1579990176,98,-21.01,55.27,72,4.23
116,Tibagi,36,BR,1579990771,57,-24.51,-50.41,78.15,2.77
117,Buta,19,CD,1579990773,37,2.79,24.73,70.92,1.34
118,East London,0,ZA,1579990288,85,-33.02,27.91,77.31,0.51
119,Albany,90,US,1579990224,93,42.6,-73.97,41,3.65
120,Vlore,100,AL,1579990778,81,40.47,19.49,52.68,8.55
121,Broome,100,US,1579990316,100,42.25,-75.83,37.99,0.83
122,Tutoia,100,BR,1579990781,86,-2.76,-42.27,79.88,5.03
123,Zhezkazgan,89,KZ,1579990301,94,47.8,67.71,6.42,11.32
124,Cape Town,40,ZA,1579990145,88,-33.93,18.42,66,9.17
125,Omboue,20,GA,1579990082,92,-1.57,9.26,76.93,3.91
126,Mandan,100,US,1579990733,92,46.83,-100.89,45,3
127,Vaini,46,TO,1579990266,86,-21.2,-175.2,78.4,21.07
128,Kiryat Gat,0,IL,1579990075,25,31.61,34.76,46.99,2.3
129,San Borja,77,BO,1579990792,59,-14.82,-66.85,90.16,2.98
130,Togur,100,RU,1579990794,91,58.36,82.83,10.96,10.67
131,Guiong,1,PH,1579990796,95,6.42,122.03,73.6,2.95
132,Bilibino,100,RU,1579990797,88,68.05,166.44,-6.93,4.05
133,Mission Bend,100,US,1579990549,74,29.69,-95.66,64,3
134,Solok,91,ID,1579990801,96,-0.79,100.66,69.39,2.24
135,Kidal,99,ML,1579990802,10,18.44,1.41,73.35,7.45
136,Orange Cove,75,US,1579990804,63,36.62,-119.31,63,3.15
137,Castro,0,BR,1579990301,53,-24.79,-50.01,77.29,0.98
138,Pangnirtung,100,CA,1579990267,99,66.15,-65.71,-36.72,2.37
139,Acari,55,PE,1579990809,72,-15.43,-74.62,72.43,10.63
139,Tautira,63,PF,1579990810,66,-17.73,-149.15,87.01,13
140,Petropavlovsk-Kamchatsky,99,RU,1579990280,90,53.05,158.65,17.55,13.58
141,Los Llanos de Aridane,0,ES,1579990814,52,28.66,-17.92,60.01,4.34
142,Jardim,0,BR,1579990815,43,-21.48,-56.14,86.9,6.31
143,La Ronge,100,CA,1579990719,95,55.1,-105.28,26.37,4.85
144,Mahibadhoo,100,MV,1579990819,82,3.78,72.97,80.87,12.08
145,Taoudenni,62,ML,1579990284,14,22.68,-3.98,77.18,6.58
146,Kavaratti,77,IN,1579990276,66,10.57,72.64,81.25,3.42
147,Bereket,0,TM,1579990824,77,39.24,55.52,30.2,2.8
148,Huainan,100,CN,1579990825,95,32.63,117,37.38,10.6
149,Altay,55,CN,1579990827,54,47.87,88.12,12.52,5.26
149,Presidencia Roque Saenz Pena,0,AR,1579990829,28,-26.79,-60.44,92.97,2.46
150,Weatherford,21,US,1579990581,68,32.76,-97.8,63,3
151,Qasigiannguit,100,GL,1579990832,43,68.82,-51.19,10.4,11.41
152,Kikwit,68,CD,1579990834,72,-5.04,18.82,74.17,1.7
153,Constitucion,0,CL,1579990835,49,-35.33,-72.42,70.61,11.36
154,Waipawa,0,NZ,1579990837,79,-41.41,175.52,71.01,5.01
155,Saldanha,33,ZA,1579990274,77,-33.01,17.94,66.2,3.36
156,Cayenne,62,GF,1579990306,87,4.93,-52.33,78.08,6.93
156,Akropong,4,GH,1579990842,37,5.97,-0.09,74.57,1.79
157,Adre,0,TD,1579990843,18,13.47,22.2,58.55,17.81
158,Nanakuli,12,US,1579990845,57,21.39,-158.15,80.01,5.01
159,Rawson,0,AR,1579990200,56,-43.3,-65.1,67.98,20.38
160,Cherskiy,100,RU,1579990277,97,68.75,161.3,-23.39,2.71
161,Yenagoa,89,NG,1579990853,57,4.92,6.26,75.25,4.41
162,Tharad,0,IN,1579990564,38,24.4,71.63,60.8,0.4
163,Port Blair,100,IN,1579990025,69,11.67,92.75,78.12,11.65
163,Egvekinot,71,RU,1579990858,96,66.32,-179.17,-6.3,0.63
164,Nago,100,JP,1579990860,88,26.59,127.98,71.01,10
165,Kruisfontein,0,ZA,1579990292,90,-34,24.73,67.35,5.73
166,Bajil,5,YE,1579990863,82,15.06,43.29,67.77,3.22
167,Katangli,0,RU,1579990865,88,51.71,143.23,-12.51,9.57
168,Margate,100,GB,1579990866,94,51.38,1.39,43,4
169,Kitob,100,UZ,1579990868,98,39.08,66.83,30.2,0.72
170,Kailua,0,US,1579990870,72,21.4,-157.74,80.01,1.99
171,Namatanai,100,PG,1579990315,77,-3.67,152.43,82.8,11.83
172,Yangi Marg`ilon,100,UZ,1579990281,72,40.43,71.72,41.31,6.62
173,Assiut,0,EG,1579990874,52,27.18,31.18,45.21,8.01
174,Ilulissat,100,GL,1579990288,43,69.22,-51.1,10.4,11.41
175,Tuktoyaktuk,100,CA,1579990289,96,69.45,-133.04,-14.19,21
176,Vestmanna,100,FO,1579990879,87,62.16,-7.17,43.75,17.92
177,Longyearbyen,0,SJ,1579990062,58,78.22,15.64,-11.52,2.73
178,Bakel,100,SN,1579990883,7,14.9,-12.46,86,10.47
179,Valparaiso,0,CL,1579990659,51,-33.04,-71.63,71.53,8.61
180,Torbay,0,CA,1579990621,79,47.67,-52.73,19,5.01
181,Port Macquarie,0,AU,1579990888,73,-31.43,152.92,84,1.99
182,Coari,100,BR,1579990889,80,-4.08,-63.14,81.77,2.42
183,Camacupa,100,AO,1579990891,95,-12.02,17.48,65.91,5.82
184,Bethel,100,US,1579990598,97,41.37,-73.41,51.01,1.01
184,Bac Lieu,100,VN,1579990743,96,9.29,105.72,70.86,2.53
185,Portland,75,US,1579990687,83,45.52,-122.68,59,4.56
186,Viedma,2,AR,1579990897,27,-40.81,-63,74.28,5.37
187,Ola,100,RU,1579990899,89,59.58,151.28,-9.36,14.85
188,Uglovskoye,67,RU,1579990865,85,51.36,80.19,13.66,12.39
189,Provideniya,0,RU,1579990713,73,64.38,-173.3,-7.44,4.99
190,Abu Kamal,0,SY,1579990904,69,34.45,40.92,44.82,10
191,Padang,91,ID,1579990070,96,-0.95,100.35,69.39,2.24
192,Barkhera Kalan,31,IN,1579990907,77,28.45,79.8,51.35,4.85
193,Kismayo,100,SO,1579990909,89,-0.36,42.55,80.64,14.23
194,Avanuorri,94,NO,1579990319,84,71,24.66,23.4,31.52
195,Lorengau,3,PG,1579990913,73,-2.02,147.27,82.83,5.3
196,Edson,0,CA,1579990914,100,53.58,-116.44,33.31,1.48
197,Pushkino,90,RU,1579990916,63,56.02,37.87,33.01,4
198,Poum,77,NC,1579990918,80,-20.23,164.02,79.65,20.02
199,San Jose del Guaviare,67,CO,1579990919,53,2.57,-72.65,89.78,1.9
200,Harper,60,LR,1579990744,89,4.38,-7.72,78.87,4
201,San Rafael,0,AR,1579990338,16,-34.62,-68.33,91.04,7.85
202,Vardo,100,NO,1579990924,68,70.37,31.11,25.16,34.69
203,Laguna,1,US,1579990785,82,38.42,-121.42,63,3.36
204,Plouzane,39,FR,1579990928,1,48.38,-4.62,46,7.47
204,Sale,0,MA,1579990649,75,34.04,-6.82,54,3
204,Healdsburg,90,US,1579990713,82,38.61,-122.87,66,3.56
205,Pochutla,0,MX,1579990933,74,15.74,-96.47,80.74,9.04
206,Jalu,15,LY,1579990934,48,29.03,21.55,55.49,8.9
207,Katsuura,100,JP,1579990936,92,35.13,140.3,39.99,5.01
208,College,100,US,1579990937,63,64.86,-147.8,-5.01,8.01
209,Tchollire,0,CM,1579990939,12,8.4,14.17,67.75,0.81
210,Havre-Saint-Pierre,100,CA,1579990941,80,50.23,-63.6,23.56,9.01
211,Belle Glade,0,US,1579990942,53,26.68,-80.67,75.99,4
212,Marystown,0,CA,1579990944,66,47.17,-55.15,25.54,9.73
213,Timizart,1,DZ,1579990946,56,36.8,4.27,61.75,10.76
214,Matara,72,LK,1579990948,88,5.95,80.54,71.91,5.41
215,Bantou,100,CN,1579990949,98,26.22,117.49,50,3.71
216,Yerbogachen,100,RU,1579990949,94,61.28,108.01,21.65,11.99
217,Semnan,21,IR,1579990952,55,35.57,53.4,33.91,3.65
218,Sylva,100,RU,1579990954,96,58.03,56.76,19.94,4.07
219,Cidreira,67,BR,1579990949,66,-30.18,-50.21,76.32,9.4
220,Sao Jose da Coroa Grande,89,BR,1579990957,83,-8.9,-35.15,82.2,11.99
221,Vila do Maio,43,CV,1579990959,75,15.13,-23.22,73.45,17.96
222,Bathsheba,100,BB,1579990961,75,13.22,-59.52,79.21,9.98
223,Talnakh,100,RU,1579990939,95,69.49,88.4,2.75,7.27
224,Road Town,0,VG,1579990964,84,18.42,-64.62,77,4
225,Abaza,100,RU,1579990966,84,52.66,90.09,18.21,1.81
226,Kleve,26,DE,1579990734,97,51.78,6.15,37,4.52
227,Sungai Udang,0,MY,1579990969,83,2.27,102.14,77,5.01
228,Wagar,0,SD,1579990970,66,16.15,36.2,59.36,15.59
228,Clifton,100,US,1579990972,96,40.86,-74.16,52,7.11
229,Sibolga,99,ID,1579990964,96,1.74,98.78,71.74,2.75
230,Kumul,0,CN,1579990975,69,42.8,93.45,9,3.4
231,Ulcinj,90,ME,1579990977,100,41.93,19.22,41,1.12
232,Brae,100,GB,1579990976,83,60.4,-1.35,47.26,25.97
232,Prado,100,BR,1579990980,79,-17.34,-39.22,79.52,18.19
233,Coyhaique,0,CL,1579990982,63,-45.58,-72.07,60.19,14.9
234,Playas,2,EC,1579990984,71,-2.63,-80.38,80.76,13.91
235,Banepa,11,NP,1579990985,92,27.63,85.52,40.55,2.71
236,Buraidah,0,SA,1579990749,45,26.33,43.98,42.67,10.71
237,Nogliki,0,RU,1579990988,88,51.83,143.17,-13.61,12.77
238,Leshukonskoye,96,RU,1579990971,96,64.9,45.76,-1.75,4.56
239,Nanortalik,100,GL,1579990960,81,60.14,-45.24,22.53,16.15
240,Buarcos,0,PT,1579990993,91,40.17,-8.88,52,7.16
241,Bo Rai,84,TH,1579990995,68,12.57,102.54,82,0.83
241,Kurmanayevka,100,RU,1579990997,98,52.51,52.07,32.16,12.68
242,Tambovka,29,RU,1579990998,86,50.1,128.05,-3.96,6.71
243,Eureka,100,US,1579990952,93,40.8,-124.16,62.01,1.01
244,Kingman,97,US,1579991001,30,35.19,-114.05,73.99,8.01
245,Back Mountain,100,US,1579991003,94,41.34,-76,41,2.95
246,Vangaindrano,79,MG,1579991005,92,-23.35,47.6,68.45,3.22
247,Bhadasar,0,IN,1579991006,41,28.28,74.32,60.8,6.31
248,Manokwari,100,ID,1579991008,76,-0.87,134.08,74.21,3.4
249,Paphos,0,CY,1579990719,79,34.77,32.42,40.39,2.15
250,Fukuecho,100,JP,1579991011,89,32.69,128.84,52.92,20.04
251,Novo Selo,16,MK,1579991013,62,41.41,22.88,36.66,3.71
252,Bontang,18,ID,1579991015,85,0.13,117.5,79.36,7.61
253,Nyurba,95,RU,1579991001,97,63.28,118.33,-19.19,5.88
254,Novyy Urengoy,84,RU,1579991018,97,66.08,76.63,-2.52,5.3
255,Shakiso,99,ET,1579991020,70,5.75,38.92,64.71,3.13
256,Humboldt,100,US,1579991021,85,40.67,-123.92,62.01,4
257,Tingi,92,TZ,1579990952,86,-11.3,35.03,68.67,2.44
258,Lebu,0,CL,1579990959,44,-37.62,-73.65,72.59,13.06
259,Bonthe,0,SL,1579990957,86,7.53,-12.51,78.1,8.41
260,Sao Joao da Barra,100,BR,1579990738,85,-21.64,-41.05,74.79,8.05
261,Katherine,100,AU,1579991030,91,-14.47,132.27,76.1,7.38
262,Waddan,73,LY,1579991031,27,29.16,16.14,60.08,5.03
263,Borovoy,100,RU,1579991033,92,55.43,86.08,18.72,8.52
264,Coquimbo,7,CL,1579990952,85,-29.95,-71.34,63.82,8.66
265,Klaksvik,100,FO,1579990934,83,62.23,-6.59,46.06,20.8
266,Kattivakkam,85,IN,1579991038,82,13.22,80.32,75,1.01
267,Santa Cruz de la Sierra,80,BO,1579991039,16,-17.8,-63.17,101.89,1.32
268,Huarmey,98,PE,1579991041,57,-10.07,-78.15,78.96,4
269,Areosa,0,PT,1579991043,86,41.72,-8.86,51.01,1.01
270,Eydhafushi,100,MV,1579991044,72,5.1,73.07,81.82,9.08
271,Noblesville,90,US,1579991046,95,40.05,-86.01,34,17.22
272,Rauma,98,FI,1579991048,75,61.13,21.5,34.57,8.1
273,Paranaiba,6,BR,1579991049,76,-19.68,-51.19,82.11,6.51
274,Beringovskiy,100,RU,1579991000,85,63.05,179.32,14.45,10.78
274,Wanganui,100,NZ,1579991053,62,-39.93,175.05,75,14
275,Port Hedland,0,AU,1579990937,60,-20.32,118.57,85.55,8.41
276,Krasnoye-na-Volge,99,RU,1579991056,86,57.51,41.24,26.89,17.72
277,Levelland,0,US,1579991058,25,33.59,-102.38,66,5.01
278,Ati,0,TD,1579991059,12,13.22,18.34,66.87,12.91
279,Katobu,78,ID,1579991061,91,-4.94,122.53,75.97,2.44
280,Port Lincoln,39,AU,1579990964,85,-34.73,135.87,64.17,4.7
281,Hasaki,100,JP,1579990961,90,35.73,140.83,39,16.35
282,Ojinaga,89,MX,1579991066,28,29.57,-104.42,69.01,5.99
283,Puerto Madryn,0,AR,1579990777,15,-42.77,-65.04,86.74,6.04
284,Meulaboh,46,ID,1579991058,76,4.14,96.13,82.11,3.85
285,Tairua,100,NZ,1579990979,72,-37.02,175.85,79,5.01
286,Dolores,14,AR,1579991073,33,-36.31,-57.68,80.85,21.45
287,Oruzgan,0,AF,1579991074,80,32.83,66,19.11,7.25
288,Cap Malheureux,75,MU,1579991076,83,-19.98,57.61,77,12.75
289,Akhmim,0,EG,1579991078,51,26.56,31.75,46.54,12.08
290,Upernavik,57,GL,1579990940,96,72.79,-56.15,-15.52,8.12
291,Mahon,100,ES,1579991081,83,39.89,4.27,58.06,14.94
292,Camacha,24,PT,1579990951,95,33.08,-16.33,45,6.11
293,San Antonio,90,US,1579991062,77,29.42,-98.49,64,12.75
294,Marsh Harbour,1,BS,1579991086,68,26.54,-77.06,73.4,7.27
295,Tazovsky,96,RU,1579990989,96,67.47,78.7,-2.06,6.44
296,Airai,100,TL,1579990970,93,-8.93,125.41,68.27,1.21
297,Pinega,80,RU,1579991091,98,64.7,43.39,-4.68,5.57
298,Dingle,2,PH,1579990962,90,11,122.67,74.05,4.92
299,Sena Madureira,100,BR,1579990981,88,-9.07,-68.66,82.06,3.09
300,Wilmington Island,20,US,1579991096,41,32,-80.97,59,11.41
301,Aloleng,82,PH,1579991098,85,16.13,119.78,72.46,0.85
302,Baripada,9,IN,1579991099,43,21.93,86.72,55.04,3.47
303,Penzance,100,GB,1579990969,90,50.12,-5.54,50,13
304,Nizhniy Tsasuchey,100,RU,1579991103,83,50.52,115.13,0.01,5.35
304,Ribeira Grande,100,PT,1579990900,78,38.52,-28.7,54.05,5.77
305,Paita,66,PE,1579990980,50,-5.09,-81.11,86.56,19.06
306,Fallon,4,US,1579991005,65,39.47,-118.78,55.99,2.04
307,Ahipara,86,NZ,1579990930,70,-35.17,173.17,87.01,1.01
308,Huamachuco,100,PE,1579991111,86,-7.8,-78.07,46.78,3.6
309,Zemio,58,CF,1579991059,31,5.03,25.14,70.74,5.61
310,Lieto,100,FI,1579991114,100,60.55,22.5,32,5.35
311,Diamantino,96,BR,1579991116,66,-14.41,-56.45,86.32,4.27
312,Tuatapere,96,NZ,1579990955,53,-46.13,167.68,63.64,1.45
313,Fairlie,100,GB,1579991119,85,55.76,-4.86,46,1.01
314,Buin,0,CL,1579991121,35,-33.73,-70.75,84,11.01
315,Isangel,33,VU,1579990952,82,-19.55,169.27,77.67,15.01
316,Kingston,62,JM,1579991124,70,18,-76.79,79,1.01
317,Vestmannaeyjar,74,IS,1579990959,57,63.44,-20.27,41.54,12.8
318,Cantagalo,40,BR,1579991127,94,-21.98,-42.37,70.66,2.95
319,Korla,0,CN,1579991005,46,41.76,86.15,14.36,5.73
320,Pallasovka,100,RU,1579991130,95,50.05,46.88,31.87,22.06
321,Maniitsoq,100,GL,1579990974,89,65.42,-52.9,13.84,4.52
322,Kapustin Yar,100,RU,1579991134,96,48.58,45.74,32.56,20.29
323,Ulladulla,59,AU,1579990939,81,-35.35,150.47,82.99,1.01
324,Calbuco,100,CL,1579990955,93,-41.77,-73.13,60.67,11.25
325,Tromso,15,NO,1579990912,78,69.65,18.96,12.99,4.5
326,Nishifukuma,100,JP,1579991140,90,33.77,130.47,46.99,12.97
327,Te Anau,80,NZ,1579990985,83,-45.42,167.72,57.56,1.66
328,Pringsewu,66,ID,1579991144,89,-5.36,104.97,71.78,0.76
329,Nixa,97,US,1579991145,73,37.04,-93.29,48,3.47
330,Newport,99,GB,1579991147,95,51.59,-3,46.99,9.84
331,Yagodnoye,100,RU,1579991055,98,62.55,149.67,-25.55,2.33
332,Khasan,0,RU,1579991073,79,42.43,130.64,10.81,3.91
333,Pachperwa,0,IN,1579991152,81,27.52,82.65,51.57,4.5
334,Saint-Pierre,98,RE,1579990954,78,-21.34,55.48,72,14.25
334,Fairbanks,100,US,1579990802,63,64.84,-147.72,-5.01,8.01
335,Dakar,34,SN,1579990978,69,14.69,-17.44,73.85,24.74
336,Goderich,100,CA,1579990985,93,43.75,-81.72,36,1.99
337,Tura,0,IN,1579990952,74,25.52,90.22,54.01,1.21
338,Jasper,88,US,1579991162,72,37.2,-94.35,46.99,1.01
339,Kokopo,74,PG,1579991163,80,-4.35,152.26,81.59,5.37
340,Nome,0,US,1579990965,71,64.5,-165.41,-9.62,7.07
341,Vadgaon,0,IN,1579991167,36,20.94,74.87,67.21,2.71
342,Roebourne,16,AU,1579990982,50,-20.78,117.13,85.5,2.15
343,Kampot,39,KH,1579991003,81,10.62,104.18,77,1.28
344,Cockburn Town,0,TC,1579990953,65,21.46,-71.14,76.35,6.38
345,Byron Bay,8,AU,1579991115,83,-28.65,153.62,82,1.32
346,Carutapera,100,BR,1579990971,80,-1.2,-46.02,82.71,13.33
347,San Patricio,58,MX,1579990926,65,19.22,-104.7,79.16,7.52
348,Bengkulu,78,ID,1579990956,91,-3.8,102.27,73.62,3.11
348,Tsimlyansk,100,RU,1579991180,90,47.65,42.1,36.81,17.02
349,Qixingtai,100,CN,1579991181,88,30.41,111.89,37,11.25
350,Maragogi,89,BR,1579991183,83,-9.01,-35.22,82.2,11.99
351,Sokone,6,SN,1579991185,21,13.88,-16.37,85.84,16.71
352,Takab,93,IR,1579991186,84,36.4,47.11,7.05,1.48
352,Olafsvik,100,IS,1579991003,79,64.89,-23.71,35.91,13.38
353,Nsukka,4,NG,1579991190,14,6.86,7.39,72.95,4.61
354,Sioux Lookout,100,CA,1579991191,92,50.1,-91.92,27.7,3.15
355,San Quintin,90,MX,1579990987,60,30.48,-115.95,65.3,5.88
356,Goure,0,NE,1579991194,14,13.98,10.27,70,10
357,Ilhabela,91,BR,1579991075,67,-23.78,-45.36,76.71,4.23
358,Xunchang,7,CN,1579991198,81,28.45,104.72,41.63,2.35
359,Lesnoy,100,RU,1579991199,94,57.62,63.08,9.77,7.74
360,Makinsk,100,KZ,1579991201,91,52.63,70.42,8.78,20.78
360,Jumla,11,NP,1579991203,61,29.27,82.18,23.49,4.52
361,Kununurra,100,AU,1579990986,68,-15.77,128.73,85.19,3.49
362,Haines Junction,99,CA,1579990964,99,60.75,-137.51,-14.37,6.87
363,Vila Franca do Campo,100,PT,1579991108,86,37.72,-25.43,62.98,14.79
364,Teguise,0,ES,1579991209,72,29.06,-13.56,61.57,7.52
365,Kaeo,98,NZ,1579990956,70,-35.1,173.78,87.01,1.01
366,Birao,97,CF,1579991004,18,10.28,22.79,63.27,11.05
367,Batemans Bay,46,AU,1579991122,96,-35.72,150.18,77,1.01
368,Hojo,100,JP,1579991216,96,33.98,132.78,45,9.22
369,Saint-Augustin,34,CA,1579990962,77,51.23,-58.65,16.25,12.59
370,Northam,89,GB,1579990982,93,51.03,-4.22,46.99,5.01
371,Snaase,100,NO,1579991221,97,64.25,12.38,28.92,11.54
372,Najran,0,SA,1579990970,86,17.49,44.13,49.37,2.17
373,Iqaluit,13,CA,1579990950,60,63.75,-68.51,-27,8.99
374,Nurota,100,UZ,1579991226,97,40.56,65.69,27.86,5.99
375,Keetmanshoop,0,NA,1579991099,56,-26.58,18.13,65.14,15.5
376,Severo-Kuril'sk,100,RU,1579990949,91,50.68,156.12,17.74,42.77
377,Rock Sound,32,BS,1579991231,66,24.9,-76.2,73.47,5.39
378,Lukow,96,PL,1579991232,97,51.93,22.38,36,6.85
379,Millinocket,100,US,1579991234,34,45.66,-68.71,34,5.41
380,Manado,1,ID,1579991080,95,1.49,124.85,70.12,0.85
381,Codrington,85,AU,1579990956,93,-38.27,141.97,61.86,13.47
382,Pombas,100,CV,1579990965,79,17.15,-25.02,68.25,16.98
383,Westport,90,US,1579991069,100,41.14,-73.36,52,13.87
384,Nileshwar,74,IN,1579991242,80,12.25,75.1,78.67,5.39
385,Bayir,67,TR,1579990941,77,37.27,28.22,36.99,3.51
386,Kloulklubed,43,PW,1579991245,83,7.04,134.26,81.93,17.43
387,Powell River,100,CA,1579991247,96,49.85,-124.54,48,1.99
388,Atambua,70,ID,1579990989,82,-9.11,124.89,75.92,2.35
389,Bela,0,IN,1579991250,67,25.93,81.98,50.32,5.08
390,Semey,100,KZ,1579991252,91,50.41,80.23,20.68,8.46
391,Ixtapa,100,MX,1579990952,98,20.7,-105.2,73,1.99
392,Pacific Grove,33,US,1579991255,85,36.62,-121.92,68,1.99
393,Bushehr,2,IR,1579991257,74,28.97,50.84,55.76,15.05
394,Misratah,100,LY,1579991168,46,32.38,15.09,65.17,8.23
395,Wuxue,100,CN,1579990993,91,29.85,115.55,41.32,5.93
396,Bambanglipuro,54,ID,1579990960,88,-7.95,110.28,75.18,3.76
397,Sao Miguel do Araguaia,99,BR,1579991016,94,-13.28,-50.16,79,4.09
398,Turukhansk,97,RU,1579991265,94,65.82,87.98,3.76,1.99
398,Laohekou,100,CN,1579991267,91,32.39,111.67,35.6,1.81
399,Itaituba,100,BR,1579991268,93,-4.28,-55.98,77.85,6.6
400,Namsos,100,NO,1579991270,95,64.47,11.5,46,5.01
401,Ormara,0,PK,1579991272,81,25.21,64.64,72.03,16.49
401,Baghmara,0,IN,1579991273,64,23.8,86.21,52.68,3.22
402,Tadine,54,NC,1579990951,76,-21.55,167.88,78.89,14.52
403,Okha,0,RU,1579991039,82,53.57,142.95,-13.9,15.97
403,Tambopata,100,PE,1579991278,84,-12.73,-69.18,77.83,1.34
404,Mount Gambier,70,AU,1579990972,92,-37.83,140.77,61.81,5.19
405,Richards Bay,4,ZA,1579990989,82,-28.78,32.04,77,25.5
406,Lagoa,100,PT,1579990955,68,39.05,-27.98,58.48,9.48
406,Sindor,100,RU,1579991285,98,62.86,51.89,-3.03,4.81
407,Lompoc,1,US,1579990956,82,34.64,-120.46,73,8.05
408,Uthal,0,PK,1579991288,65,25.81,66.62,66.61,3.15
409,Veraval,0,IN,1579991124,31,20.9,70.37,65.97,7.43
410,Pedernales,84,DO,1579991002,78,18.04,-71.74,73.4,3.96
411,Shubarshi,99,KZ,1579991000,94,48.59,57.19,26.29,20.45
412,Yar-Sale,94,RU,1579990948,97,66.83,70.83,-1.37,5.44
413,San Fernando del Valle de Catamarca,87,AR,1579991296,31,-28.47,-65.79,96.01,8.99
414,Koungheul,88,SN,1579991298,9,13.98,-14.8,86.88,8.61
415,Kilindoni,100,TZ,1579991043,75,-7.91,39.67,82.04,6.33
416,Yakima,97,US,1579991301,76,46.47,-120.67,55.99,1.99
417,Statesboro,1,US,1579991303,47,32.45,-81.78,59,11.41
418,Khani,0,GE,1579991304,71,41.96,42.96,25.92,7.43
418,Tiarei,11,PF,1579990979,66,-17.53,-149.33,87.01,13
419,Fortuna,100,US,1579990941,84,40.6,-124.16,62.01,4
420,Fernley,1,US,1579991309,43,39.61,-119.25,57.99,2.04
421,Hofn,100,IS,1579990970,95,64.25,-15.21,35.69,4.03
422,Aykhal,100,RU,1579991007,100,66,111.5,-22.05,8.95
423,Idanre,89,NG,1579991314,16,7.11,5.12,74.16,1.74
424,Marawi,0,PH,1579990968,92,8,124.29,77,1.01
425,San Lorenzo,0,PY,1579991318,19,-25.33,-57.53,96.84,5.41
426,Mangrol,0,IN,1579990963,49,21.12,70.12,72.21,15.28
427,Birjand,4,IR,1579991321,79,32.87,59.22,35.47,5.44
428,Whitehorse,100,CA,1579991274,70,60.72,-135.05,-0.99,10
429,Ha Giang,50,VN,1579991324,91,22.83,104.98,43.56,4.34
430,Kudahuvadhoo,100,MV,1579990972,76,2.67,72.89,81.81,14.79
431,Vostok,0,RU,1579990951,88,46.49,135.88,-13.58,5.39
432,Darnah,28,LY,1579991329,58,32.77,22.64,60.1,4.65
433,Norden,75,DE,1579991331,93,53.6,7.2,36,8.05
433,Hambantota,91,LK,1579990986,75,6.12,81.12,78.6,22.03
433,Dicabisagan,100,PH,1579991076,90,17.08,122.42,74.44,8.34
434,Port Hardy,28,CA,1579990990,80,50.7,-127.42,46.76,4.59
435,Sol'-Iletsk,100,RU,1579991337,95,51.16,54.99,27.48,18.68
436,Saint George's,100,GD,1579990811,77,12.06,-61.75,79.39,10.65
437,Nabire,99,ID,1579990999,93,-3.37,135.48,74.03,1.7
438,Komatsu,100,JP,1579991342,71,36.4,136.45,35.01,9.15
439,Petropavlovskoye,100,RU,1579991344,97,52.07,84.11,25.23,3.67
440,Oranjemund,70,NA,1579990956,83,-28.55,16.43,67.05,10.69
441,Hervey Bay,23,AU,1579991347,64,-25.3,152.85,84,4
442,Sayat,100,TM,1579991349,77,38.78,63.88,33.64,9.44
443,Tumpat,47,MY,1579991103,94,6.2,102.17,75,1.01
444,Lashio,0,MM,1579991352,53,22.93,97.75,44.02,2.68
445,Sagone,100,FR,1579991354,100,42.12,8.7,44.6,9.17
446,Den Helder,55,NL,1579991355,91,52.96,4.76,39,15.39
447,Waterloo,100,CA,1579991357,92,43.47,-80.52,37.99,1.99
448,Shingu,100,JP,1579990995,92,33.73,135.98,51.22,14.43
449,Itupeva,67,BR,1579990990,44,-23.15,-47.06,78.01,7.25
450,Tongren,100,CN,1579991362,94,27.72,109.19,34.66,2.46
450,Pailon,81,BO,1579991364,20,-17.65,-62.75,100.13,3.44
451,Cabadiangan,0,PH,1579991365,83,9.75,122.47,78.22,4.23
452,Dauriya,100,RU,1579991367,78,49.93,116.87,-1.75,4.27
453,Auki,0,SB,1579990995,76,-8.77,160.7,83.41,6.08
454,Tagusao,64,PH,1579991370,92,9.19,117.81,74.55,1.32
455,Grindavik,20,IS,1579990964,65,63.84,-22.43,35.6,10.29
456,Grenaa,100,DK,1579991374,95,56.42,10.88,42.01,1.99
457,Alice Springs,0,AU,1579990946,49,-23.7,133.88,71.15,7.87
458,San Bartolome de Tirajana,29,ES,1579991377,70,27.92,-15.57,64,8.19
459,Sibu,36,MY,1579991379,10,2.3,111.82,77,1.79
460,Cuauhtemoc,100,MX,1579991205,26,28.42,-106.87,58.87,12.64
461,Berlevag,100,NO,1579990985,60,70.86,29.09,24.8,32.14
461,Tonekabon,5,IR,1579991384,67,36.82,50.87,48.06,10.09
462,San Policarpo,4,PH,1579991385,86,12.18,125.51,79.43,10.18
463,Byarozawka,80,BY,1579991387,92,53.72,25.5,34.86,10.04
464,Batsfjord,70,NO,1579991389,81,70.63,29.72,16.11,24.58
465,Murwillumbah,8,AU,1579991390,71,-28.32,153.4,82,1.01
466,Songjianghe,0,CN,1579991392,80,42.19,127.48,4.24,3.56
467,Zelenoborskiy,0,RU,1579991394,95,66.84,32.36,1.85,6.64
468,'Ahuimanu,12,US,1579990950,68,21.44,-157.84,80.01,8.97
469,Midland,0,US,1579991216,32,32,-102.08,73,8.01
470,Oussouye,100,SN,1579991091,53,12.48,-16.55,73.94,6.02
471,Charlottesville,0,US,1579991151,61,38.03,-78.48,52,7
472,Aguimes,21,ES,1579991402,70,27.91,-15.45,64,6.13
473,Merauke,68,ID,1579991001,91,-8.47,140.33,75.52,3.31
474,Diego de Almagro,77,CL,1579991405,64,-26.37,-70.05,69.04,6.02
475,Igaracu do Tiete,50,BR,1579991407,73,-22.51,-48.56,77,1.01
476,Kankan,9,GN,1579991409,14,10.39,-9.31,71.78,2.48
477,Oum Hadjer,0,TD,1579991410,20,13.3,19.7,58.84,11.68
478,Kamenka,100,RU,1579990981,87,51.32,42.77,35.01,13
478,Lavrentiya,0,RU,1579990968,73,65.58,-171,-14.71,0.89
479,Caravelas,100,BR,1579990954,79,-17.71,-39.25,79.52,18.19
480,Ust'-Kulom,100,RU,1579991417,97,61.69,53.69,2.84,3.94
481,Ipameri,100,BR,1579991419,93,-17.72,-48.16,69.69,4.54
482,Thinadhoo,100,MV,1579990997,81,0.53,72.93,82.22,14.07
483,Astana,90,KZ,1579991422,88,51.18,71.45,6.28,19.89
484,Mattru,0,SL,1579991424,96,7.62,-11.83,73.89,3.44
485,Igrim,40,RU,1579991425,99,63.19,64.42,-13.04,1.83
486,Pingzhuang,0,CN,1579991427,72,42.04,119.29,14,1.19
487,Bosaso,2,SO,1579990974,76,11.28,49.18,76.77,4.14
488,Wasilla,49,US,1579991221,66,61.58,-149.44,5,1.01
489,Binga,0,ZW,1579991432,79,-17.62,27.34,75.29,4.36
489,Wanning,100,CN,1579991434,92,18.8,110.4,66.27,10.54
490,Dharampuri,0,IN,1579991435,45,22.17,75.35,61.27,6.11
491,Fougamou,38,GA,1579991437,94,-1.22,10.58,75.56,1.03
491,Sakakah,9,SA,1579991434,78,29.97,40.21,39.18,7.85
492,Bereda,5,ES,1579991440,82,43.27,-7.54,45,1.01
492,Morki,95,RU,1579991442,96,56.43,48.99,18.7,2.44
492,Nakasongola,100,UG,1579991444,58,1.31,32.46,75.78,4.74
493,Malbork,56,PL,1579990955,100,54.04,19.03,42.01,9.4
494,Karligan,98,PH,1579991447,93,14.97,122.05,75.88,6.49
495,Wiarton,100,CA,1579991448,92,44.74,-81.13,36,5.01
496,Dunmore Town,0,BS,1579991450,67,25.5,-76.65,72.72,2.66
496,Bay Roberts,0,CA,1579991452,79,47.6,-53.26,19,4.14
497,Rapid Valley,75,US,1579991453,39,44.06,-103.15,46.99,17.22
498,Esna,0,EG,1579991455,78,25.29,32.55,42.58,2.84
499,Kasangulu,100,CD,1579991457,78,-4.59,15.17,82.4,2.24
499,Quelimane,16,MZ,1579991458,93,-17.88,36.89,72.64,4
500,Rocha,0,UY,1579990984,48,-34.48,-54.33,75.42,12.66
501,Yulara,0,AU,1579991009,20,-25.24,130.99,73.49,10.89
502,Salon,0,IN,1579991463,69,26.03,81.45,48.99,3.65
503,La Romana,44,DO,1579991465,86,18.43,-68.97,71.4,7.16
504,Aklavik,100,CA,1579990982,92,68.22,-135.01,-14.55,22.3
504,Rio Gallegos,100,AR,1579990988,46,-51.62,-69.22,57.9,34.78
505,Santa Rosa,76,PH,1579991470,91,14.31,121.11,75.99,1.01
